{
  "type": "FeatureCollection",
  "features": [
    {
      "type": "Feature",
      "geometry": {
        "type": "Point",
        "coordinates": [
          125.75,
          39.8
        ]
      },
      "properties": {
        "name": "영변 핵단지"
      }
    },
    {
      "type": "Feature",
      "geometry": {
        "type": "Point",
        "coordinates": [
          125.6,
          38.95
        ]
      },
      "properties": {
        "name": "강선 우라늄 농축시설"
      }
    },
    {
      "type": "Feature",
      "geometry": {
        "type": "Point",
        "coordinates": [
          125.85,
          39.25
        ]
      },
      "properties": {
        "name": "평성 우라늄 연구시설"
      }
    },
    {
      "type": "Feature",
      "geometry": {
        "type": "Point",
        "coordinates": [
          125.85,
          39.7833
        ]
      },
      "properties": {
        "name": "박천 우라늄 광산"
      }
    },
    {
      "type": "Feature",
      "geometry": {
        "type": "Point",
        "coordinates": [
          129.087,
          41.278
        ]
      },
      "properties": {
        "name": "풍계리 핵실험장"
      }
    },
    {
      "type": "Feature",
      "geometry": {
        "type": "Point",
        "coordinates": [
          124.705,
          39.667
        ]
      },
      "properties": {
        "name": "서해위성발사장"
      }
    },
    {
      "type": "Feature",
      "geometry": {
        "type": "Point",
        "coordinates": [
          125.7891195,
          39.0633775
        ]
      },
      "properties": {
        "name": "금수산태양궁전"
      }
    },
    {
      "type": "Feature",
      "geometry": {
        "type": "Point",
        "coordinates": [
          125.69,
          39.17
        ]
      },
      "properties": {
        "name": "산음동 미사일 연구소"
      }
    },
    {
      "type": "Feature",
      "geometry": {
        "type": "Point",
        "coordinates": [
          126.05,
          38.51
        ]
      },
      "properties": {
        "name": "삭간몰 미사일 기지"
      }
    },
    {
      "type": "Feature",
      "geometry": {
        "type": "Point",
        "coordinates": [
          126.2,
          40.15
        ]
      },
      "properties": {
        "name": "신오리 미사일 기지"
      }
    },
    {
      "type": "Feature",
      "geometry": {
        "type": "Point",
        "coordinates": [
          126.5,
          40.95
        ]
      },
      "properties": {
        "name": "영저리 미사일 기지"
      }
    },
    {
      "type": "Feature",
      "geometry": {
        "type": "Point",
        "coordinates": [
          127.0,
          38.9
        ]
      },
      "properties": {
        "name": "갈골 미사일 기지"
      }
    },
    {
      "type": "Feature",
      "geometry": {
        "type": "Point",
        "coordinates": [
          125.45,
          39.65
        ]
      },
      "properties": {
        "name": "금창리 시설"
      }
    },
    {
      "type": "Feature",
      "geometry": {
        "type": "Point",
        "coordinates": [
          125.75,
          39.4
        ]
      },
      "properties": {
        "name": "태천 미사일 기지"
      }
    },
    {
      "type": "Feature",
      "geometry": {
        "type": "Point",
        "coordinates": [
          126.883,
          40.667
        ]
      },
      "properties": {
        "name": "용림 미사일 기지"
      }
    },
    {
      "type": "Feature",
      "geometry": {
        "type": "Point",
        "coordinates": [
          127.2,
          40.95
        ]
      },
      "properties": {
        "name": "토골 미사일 기지"
      }
    },
    {
      "type": "Feature",
      "geometry": {
        "type": "Point",
        "coordinates": [
          127.6,
          39.983
        ]
      },
      "properties": {
        "name": "신포 조선소"
      }
    },
    {
      "type": "Feature",
      "geometry": {
        "type": "Point",
        "coordinates": [
          127.37,
          39.433
        ]
      },
      "properties": {
        "name": "마양도 잠수함 기지"
      }
    },
    {
      "type": "Feature",
      "geometry": {
        "type": "Point",
        "coordinates": [
          125.4,
          38.7333
        ]
      },
      "properties": {
        "name": "남포 SLBM 지원조선소"
      }
    },
    {
      "type": "Feature",
      "geometry": {
        "type": "Point",
        "coordinates": [
          127.4833,
          39.1667
        ]
      },
      "properties": {
        "name": "원산 갈마비행장"
      }
    },
    {
      "type": "Feature",
      "geometry": {
        "type": "Point",
        "coordinates": [
          127.5,
          39.75
        ]
      },
      "properties": {
        "name": "선덕 비행장"
      }
    },
    {
      "type": "Feature",
      "geometry": {
        "type": "Point",
        "coordinates": [
          125.733,
          39.033
        ]
      },
      "properties": {
        "name": "평양 대성구역 지휘소"
      }
    },
    {
      "type": "Feature",
      "geometry": {
        "type": "Point",
        "coordinates": [
          126.3333,
          40.0
        ]
      },
      "properties": {
        "name": "묘향산 지하지휘소"
      }
    },
    {
      "type": "Feature",
      "geometry": {
        "type": "Point",
        "coordinates": [
          126.6,
          40.9667
        ]
      },
      "properties": {
        "name": "강계 지하 벙커"
      }
    },
    {
      "type": "Feature",
      "geometry": {
        "type": "Point",
        "coordinates": [
          126.5,
          41.1
        ]
      },
      "properties": {
        "name": "창성 지하미사일기지"
      }
    },
    {
      "type": "Feature",
      "geometry": {
        "type": "Point",
        "coordinates": [
          125.6,
          38.95
        ]
      },
      "properties": {
        "name": "대흥 지하시설"
      }
    },
    {
      "type": "Feature",
      "geometry": {
        "type": "Point",
        "coordinates": [
          129.45,
          41.5
        ]
      },
      "properties": {
        "name": "화대 미사일 기지"
      }
    },
    {
      "type": "Feature",
      "geometry": {
        "type": "Point",
        "coordinates": [
          126.0833,
          39.7
        ]
      },
      "properties": {
        "name": "북창 비행장"
      }
    },
    {
      "type": "Feature",
      "geometry": {
        "type": "Point",
        "coordinates": [
          126.9,
          40.85
        ]
      },
      "properties": {
        "name": "자강도 미사일 기지"
      }
    },
    {
      "type": "Feature",
      "geometry": {
        "type": "Point",
        "coordinates": [
          129.6667,
          40.85
        ]
      },
      "properties": {
        "name": "대포동 미사일 발사장"
      }
    },
    {
      "type": "Feature",
      "geometry": {
        "type": "Point",
        "coordinates": [
          125.8,
          38.4167
        ]
      },
      "properties": {
        "name": "신천 화학공장"
      }
    },
    {
      "type": "Feature",
      "geometry": {
        "type": "Point",
        "coordinates": [
          127.6333,
          39.8333
        ]
      },
      "properties": {
        "name": "흥남 화학공업단지"
      }
    },
    {
      "type": "Feature",
      "geometry": {
        "type": "Point",
        "coordinates": [
          126.0,
          39.5
        ]
      },
      "properties": {
        "name": "남흥 화학연료공장"
      }
    },
    {
      "type": "Feature",
      "geometry": {
        "type": "Point",
        "coordinates": [
          125.9333,
          39.4167
        ]
      },
      "properties": {
        "name": "순천 화학공장"
      }
    },
    {
      "type": "Feature",
      "geometry": {
        "type": "Point",
        "coordinates": [
          129.2167,
          42.2333
        ]
      },
      "properties": {
        "name": "무산 광산"
      }
    },
    {
      "type": "Feature",
      "geometry": {
        "type": "Point",
        "coordinates": [
          129.75,
          42.4333
        ]
      },
      "properties": {
        "name": "회령 우라늄 시설"
      }
    },
    {
      "type": "Feature",
      "geometry": {
        "type": "Point",
        "coordinates": [
          126.25,
          39.65
        ]
      },
      "properties": {
        "name": "풍서 미사일 기지"
      }
    },
    {
      "type": "Feature",
      "geometry": {
        "type": "Point",
        "coordinates": [
          126.3,
          40.7
        ]
      },
      "properties": {
        "name": "대관군 미사일 기지"
      }
    },
    {
      "type": "Feature",
      "geometry": {
        "type": "Point",
        "coordinates": [
          126.5833,
          40.05
        ]
      },
      "properties": {
        "name": "자강도 덕천 기지"
      }
    },
    {
      "type": "Feature",
      "geometry": {
        "type": "Point",
        "coordinates": [
          126.6,
          40.9667
        ]
      },
      "properties": {
        "name": "강계 미사일 연구시설"
      }
    },
    {
      "type": "Feature",
      "geometry": {
        "type": "Point",
        "coordinates": [
          125.6,
          38.95
        ]
      },
      "properties": {
        "name": "강선 군수공업단지"
      }
    },
    {
      "type": "Feature",
      "geometry": {
        "type": "Point",
        "coordinates": [
          125.7333,
          39.0333
        ]
      },
      "properties": {
        "name": "평양 미사일 지하기지"
      }
    },
    {
      "type": "Feature",
      "geometry": {
        "type": "Point",
        "coordinates": [
          126.6,
          40.9667
        ]
      },
      "properties": {
        "name": "강계 방사포 기지"
      }
    },
    {
      "type": "Feature",
      "geometry": {
        "type": "Point",
        "coordinates": [
          125.75,
          38.75
        ]
      },
      "properties": {
        "name": "황해북도 송림 공업단지"
      }
    },
    {
      "type": "Feature",
      "geometry": {
        "type": "Point",
        "coordinates": [
          127.5333,
          39.9167
        ]
      },
      "properties": {
        "name": "함흥 미사일 연구시설"
      }
    },
    {
      "type": "Feature",
      "geometry": {
        "type": "Point",
        "coordinates": [
          128.1667,
          40.0167
        ]
      },
      "properties": {
        "name": "신포 SLBM 개발조선소"
      }
    },
    {
      "type": "Feature",
      "geometry": {
        "type": "Point",
        "coordinates": [
          127.4461,
          39.1475
        ]
      },
      "properties": {
        "name": "원산 군항"
      }
    },
    {
      "type": "Feature",
      "geometry": {
        "type": "Point",
        "coordinates": [
          129.7667,
          41.7833
        ]
      },
      "properties": {
        "name": "청진 항만 군수기지"
      }
    },
    {
      "type": "Feature",
      "geometry": {
        "type": "Point",
        "coordinates": [
          130.3844,
          42.3444
        ]
      },
      "properties": {
        "name": "라선 군항"
      }
    },
    {
      "type": "Feature",
      "geometry": {
        "type": "Point",
        "coordinates": [
          125.7167,
          38.0333
        ]
      },
      "properties": {
        "name": "해주 미사일 부대"
      }
    },
    {
      "type": "Feature",
      "geometry": {
        "type": "Point",
        "coordinates": [
          126.55,
          37.9667
        ]
      },
      "properties": {
        "name": "개성 군사시설"
      }
    },
    {
      "type": "Feature",
      "geometry": {
        "type": "Point",
        "coordinates": [
          126.736722,
          38.602953
        ]
      },
      "properties": {
        "name": "지하리"
      }
    },
    {
      "type": "Feature",
      "geometry": {
        "type": "Point",
        "coordinates": [
          127.602356,
          38.965039
        ]
      },
      "properties": {
        "name": "금천리"
      }
    },
    {
      "type": "Feature",
      "geometry": {
        "type": "Point",
        "coordinates": [
          125.399147,
          39.197939
        ]
      },
      "properties": {
        "name": "화진리"
      }
    },
    {
      "type": "Feature",
      "geometry": {
        "type": "Point",
        "coordinates": [
          125.763769,
          39.358953
        ]
      },
      "properties": {
        "name": "싱송리"
      }
    },
    {
      "type": "Feature",
      "geometry": {
        "type": "Point",
        "coordinates": [
          126.258425,
          39.447661
        ]
      },
      "properties": {
        "name": "유상리"
      }
    },
    {
      "type": "Feature",
      "geometry": {
        "type": "Point",
        "coordinates": [
          126.912817,
          41.372678
        ]
      },
      "properties": {
        "name": "회정리"
      }
    },
    {
      "type": "Feature",
      "geometry": {
        "type": "Point",
        "coordinates": [
          124.571333,
          39.997561
        ]
      },
      "properties": {
        "name": "구성리"
      }
    },
    {
      "type": "Feature",
      "geometry": {
        "type": "Point",
        "coordinates": [
          128.19555,
          39.995025
        ]
      },
      "properties": {
        "name": "신포-마양"
      }
    },
    {
      "type": "Feature",
      "geometry": {
        "type": "Point",
        "coordinates": [
          125.360103,
          39.649256
        ]
      },
      "properties": {
        "name": "신오리"
      }
    },
    {
      "type": "Feature",
      "geometry": {
        "type": "Point",
        "coordinates": [
          129.642806,
          40.870303
        ]
      },
      "properties": {
        "name": "동해위성발사센터"
      }
    },
    {
      "type": "Feature",
      "geometry": {
        "type": "Point",
        "coordinates": [
          127.093194,
          41.329044
        ]
      },
      "properties": {
        "name": "영조리"
      }
    },
    {
      "type": "Feature",
      "geometry": {
        "type": "Point",
        "coordinates": [
          129.7736984,
          41.3220664
        ]
      },
      "properties": {
        "name": "부암동 해군 기지"
      }
    },
    {
      "type": "Feature",
      "geometry": {
        "type": "Point",
        "coordinates": [
          128.650185,
          40.2058523
        ]
      },
      "properties": {
        "name": "차호-노동자구 해군 기지"
      }
    },
    {
      "type": "Feature",
      "geometry": {
        "type": "Point",
        "coordinates": [
          127.7829538,
          39.8777122
        ]
      },
      "properties": {
        "name": "요호리 해군 기지"
      }
    },
    {
      "type": "Feature",
      "geometry": {
        "type": "Point",
        "coordinates": [
          127.4446737,
          39.3715786
        ]
      },
      "properties": {
        "name": "성진 반도 해군 기지"
      }
    },
    {
      "type": "Feature",
      "geometry": {
        "type": "Point",
        "coordinates": [
          128.2104301,
          38.7339817
        ]
      },
      "properties": {
        "name": "고성 해군 기지"
      }
    },
    {
      "type": "Feature",
      "geometry": {
        "type": "Point",
        "coordinates": [
          128.1390783,
          38.8012055
        ]
      },
      "properties": {
        "name": "마나에리 해군 기지"
      }
    },
    {
      "type": "Feature",
      "geometry": {
        "type": "Point",
        "coordinates": [
          126.1119056,
          40.0765253
        ]
      },
      "properties": {
        "name": "조선중앙방송국"
      }
    },
    {
      "type": "Feature",
      "geometry": {
        "type": "Point",
        "coordinates": [
          127.477718,
          39.188647
        ]
      },
      "properties": {
        "name": "지도부 거주지"
      }
    },
    {
      "type": "Feature",
      "geometry": {
        "type": "Point",
        "coordinates": [
          129.0855392,
          41.2808279
        ]
      },
      "properties": {
        "name": "북쪽 지하 핵시설 입구"
      }
    },
    {
      "type": "Feature",
      "geometry": {
        "type": "Point",
        "coordinates": [
          129.0854199,
          41.2796712
        ]
      },
      "properties": {
        "name": "서쪽 지하 핵시설 입구"
      }
    },
    {
      "type": "Feature",
      "geometry": {
        "type": "Point",
        "coordinates": [
          126.0567978,
          39.5689553
        ]
      },
      "properties": {
        "name": "개천 제14호 관리소"
      }
    },
    {
      "type": "Feature",
      "geometry": {
        "type": "Point",
        "coordinates": [
          126.8504508,
          39.6743419
        ]
      },
      "properties": {
        "name": "요덕 제15호 관리소"
      }
    },
    {
      "type": "Feature",
      "geometry": {
        "type": "Point",
        "coordinates": [
          125.9233421,
          39.7080751
        ]
      },
      "properties": {
        "name": "개천 제1호교화소"
      }
    },
    {
      "type": "Feature",
      "geometry": {
        "type": "Point",
        "coordinates": [
          126.063223,
          39.546164
        ]
      },
      "properties": {
        "name": "북창 제18호 관리소"
      }
    },
    {
      "type": "Feature",
      "geometry": {
        "type": "Point",
        "coordinates": [
          129.9346471,
          42.5381293
        ]
      },
      "properties": {
        "name": "회령 제22호 관리소"
      }
    },
    {
      "type": "Feature",
      "geometry": {
        "type": "Point",
        "coordinates": [
          125.7921988,
          39.0227348
        ]
      },
      "properties": {
        "name": "북한 프랑스 협력 사무소"
      }
    },
    {
      "type": "Feature",
      "geometry": {
        "type": "Point",
        "coordinates": [
          126.0554589,
          39.5710999
        ]
      },
      "properties": {
        "name": "개천 제14호 관리소"
      }
    },
    {
      "type": "Feature",
      "geometry": {
        "type": "Point",
        "coordinates": [
          126.0632288,
          39.5459805
        ]
      },
      "properties": {
        "name": "북창 제18호 관리소"
      }
    },
    {
      "type": "Feature",
      "geometry": {
        "type": "Point",
        "coordinates": [
          125.9230911,
          39.7081773
        ]
      },
      "properties": {
        "name": "개천 제1호교화소"
      }
    },
    {
      "type": "Feature",
      "geometry": {
        "type": "Point",
        "coordinates": [
          128.1588372,
          40.0182592
        ]
      },
      "properties": {
        "name": "신포 조선소"
      }
    },
    {
      "type": "Feature",
      "geometry": {
        "type": "Point",
        "coordinates": [
          128.6516542,
          40.20157559
        ]
      },
      "properties": {
        "name": "차호 잠수함 기지"
      }
    },
    {
      "type": "Feature",
      "geometry": {
        "type": "Point",
        "coordinates": [
          125.727579,
          39.01337
        ]
      },
      "properties": {
        "name": "북성분점"
      }
    },
    {
      "type": "Feature",
      "geometry": {
        "type": "Point",
        "coordinates": [
          129.756753,
          41.3368513
        ]
      },
      "properties": {
        "name": "지하 저장 시설"
      }
    },
    {
      "type": "Feature",
      "geometry": {
        "type": "Point",
        "coordinates": [
          125.6692971,
          39.0534719
        ]
      },
      "properties": {
        "name": "사회안정성"
      }
    },
    {
      "type": "Feature",
      "geometry": {
        "type": "Point",
        "coordinates": [
          125.741532,
          38.5203952
        ]
      },
      "properties": {
        "name": "정보기술교류실"
      }
    },
    {
      "type": "Feature",
      "geometry": {
        "type": "Point",
        "coordinates": [
          129.8243379,
          41.7828646
        ]
      },
      "properties": {
        "name": "중국 총영사관"
      }
    },
    {
      "type": "Feature",
      "geometry": {
        "type": "Point",
        "coordinates": [
          125.7422904,
          39.0018761
        ]
      },
      "properties": {
        "name": "조선민주주의인민공화국 철도성"
      }
    },
    {
      "type": "Feature",
      "geometry": {
        "type": "Point",
        "coordinates": [
          125.7175079,
          39.0200233
        ]
      },
      "properties": {
        "name": "대동신용은행"
      }
    },
    {
      "type": "Feature",
      "geometry": {
        "type": "Point",
        "coordinates": [
          124.3967393,
          40.1039332
        ]
      },
      "properties": {
        "name": "신의주시인민위원회"
      }
    },
    {
      "type": "Feature",
      "geometry": {
        "type": "Point",
        "coordinates": [
          125.734956,
          39.0037351
        ]
      },
      "properties": {
        "name": "평양지하철도관리국"
      }
    },
    {
      "type": "Feature",
      "geometry": {
        "type": "Point",
        "coordinates": [
          125.7319692,
          38.9796062
        ]
      },
      "properties": {
        "name": "하나음악정보쎈터"
      }
    },
    {
      "type": "Feature",
      "geometry": {
        "type": "Point",
        "coordinates": [
          128.3236273,
          41.8014349
        ]
      },
      "properties": {
        "name": "정보기술교류소"
      }
    },
    {
      "type": "Feature",
      "geometry": {
        "type": "Point",
        "coordinates": [
          127.4821749,
          39.1767386
        ]
      },
      "properties": {
        "name": "갈마재정금융사"
      }
    },
    {
      "type": "Feature",
      "geometry": {
        "type": "Point",
        "coordinates": [
          127.483467,
          39.1770521
        ]
      },
      "properties": {
        "name": "갈마보험지사"
      }
    },
    {
      "type": "Feature",
      "geometry": {
        "type": "Point",
        "coordinates": [
          128.3163567,
          41.8023415
        ]
      },
      "properties": {
        "name": "베개봉초급중학교"
      }
    },
    {
      "type": "Feature",
      "geometry": {
        "type": "Point",
        "coordinates": [
          128.3185642,
          41.8066652
        ]
      },
      "properties": {
        "name": "삼지연시질병예방통제소"
      }
    },
    {
      "type": "Feature",
      "geometry": {
        "type": "Point",
        "coordinates": [
          128.3209007,
          41.8052121
        ]
      },
      "properties": {
        "name": "삼지연시출판물보급소"
      }
    },
    {
      "type": "Feature",
      "geometry": {
        "type": "Point",
        "coordinates": [
          125.7530539,
          39.02092505
        ]
      },
      "properties": {
        "name": "정부종합청사"
      }
    },
    {
      "type": "Feature",
      "geometry": {
        "type": "Point",
        "coordinates": [
          125.7661138,
          39.01714137
        ]
      },
      "properties": {
        "name": "영화과학연구소"
      }
    },
    {
      "type": "Feature",
      "geometry": {
        "type": "Point",
        "coordinates": [
          125.7443554,
          39.17979642
        ]
      },
      "properties": {
        "name": "김정일인민보안대학"
      }
    },
    {
      "type": "Feature",
      "geometry": {
        "type": "Point",
        "coordinates": [
          125.7947299,
          39.02315987
        ]
      },
      "properties": {
        "name": "나이제리아대사관"
      }
    },
    {
      "type": "Feature",
      "geometry": {
        "type": "Point",
        "coordinates": [
          125.7442757,
          39.01093089
        ]
      },
      "properties": {
        "name": "백두산건축연구윈"
      }
    },
    {
      "type": "Feature",
      "geometry": {
        "type": "Point",
        "coordinates": [
          125.7521511,
          39.01820234
        ]
      },
      "properties": {
        "name": "대외경제성"
      }
    },
    {
      "type": "Feature",
      "geometry": {
        "type": "Point",
        "coordinates": [
          129.0868585,
          41.27848051
        ]
      },
      "properties": {
        "name": "풍계리 핵실험장"
      }
    },
    {
      "type": "Feature",
      "geometry": {
        "type": "Point",
        "coordinates": [
          127.5164457,
          38.26409727
        ]
      },
      "properties": {
        "name": "한반도 비무장지대"
      }
    },
    {
      "type": "Feature",
      "geometry": {
        "type": "Point",
        "coordinates": [
          127.5208567,
          38.28039985
        ]
      },
      "properties": {
        "name": "한반도비무장지대"
      }
    },
    {
      "type": "Feature",
      "geometry": {
        "type": "Point",
        "coordinates": [
          128.6473203,
          40.20706552
        ]
      },
      "properties": {
        "name": "차호-노동자구 해군 지기"
      }
    },
    {
      "type": "Feature",
      "geometry": {
        "type": "Point",
        "coordinates": [
          128.7170346,
          40.36151358
        ]
      },
      "properties": {
        "name": "리원비행장"
      }
    },
    {
      "type": "Feature",
      "geometry": {
        "type": "Point",
        "coordinates": [
          129.6767653,
          41.67360456
        ]
      },
      "properties": {
        "name": "승암리비행장"
      }
    },
    {
      "type": "Feature",
      "geometry": {
        "type": "Point",
        "coordinates": [
          129.5635775,
          41.24875568
        ]
      },
      "properties": {
        "name": "극동비행장"
      }
    },
    {
      "type": "Feature",
      "geometry": {
        "type": "Point",
        "coordinates": [
          126.3263859,
          37.79696399
        ]
      },
      "properties": {
        "name": "한강하구 중립수역"
      }
    },
    {
      "type": "Feature",
      "geometry": {
        "type": "Point",
        "coordinates": [
          125.7413418,
          39.02016208
        ]
      },
      "properties": {
        "name": "조선로동당 중앙위원회 총무부"
      }
    },
    {
      "type": "Feature",
      "geometry": {
        "type": "Point",
        "coordinates": [
          125.7404579,
          39.01807985
        ]
      },
      "properties": {
        "name": "조선로동당 중앙검사위원회"
      }
    },
    {
      "type": "Feature",
      "geometry": {
        "type": "Point",
        "coordinates": [
          125.7399491,
          39.0160111
        ]
      },
      "properties": {
        "name": "조선로동당 중앙위원회 군수공업부"
      }
    },
    {
      "type": "Feature",
      "geometry": {
        "type": "Point",
        "coordinates": [
          128.1853949,
          41.39522389
        ]
      },
      "properties": {
        "name": "량강도인민위원회"
      }
    },
    {
      "type": "Feature",
      "geometry": {
        "type": "Point",
        "coordinates": [
          125.6493367,
          37.73649005
        ]
      },
      "properties": {
        "name": "장재도방어대"
      }
    },
    {
      "type": "Feature",
      "geometry": {
        "type": "Point",
        "coordinates": [
          125.788386,
          39.02139691
        ]
      },
      "properties": {
        "name": "뽈스까대사관"
      }
    },
    {
      "type": "Feature",
      "geometry": {
        "type": "Point",
        "coordinates": [
          124.7039233,
          39.66021097
        ]
      },
      "properties": {
        "name": "동창리미사일발사장"
      }
    },
    {
      "type": "Feature",
      "geometry": {
        "type": "Point",
        "coordinates": [
          127.6139714,
          39.99620499
        ]
      },
      "properties": {
        "name": "덕산비행장"
      }
    },
    {
      "type": "Feature",
      "geometry": {
        "type": "Point",
        "coordinates": [
          125.2231257,
          40.05753458
        ]
      },
      "properties": {
        "name": "95호 탄약공장"
      }
    },
    {
      "type": "Feature",
      "geometry": {
        "type": "Point",
        "coordinates": [
          129.646235,
          41.43033731
        ]
      },
      "properties": {
        "name": "청진공항"
      }
    },
    {
      "type": "Feature",
      "geometry": {
        "type": "Point",
        "coordinates": [
          129.7615021,
          41.79354477
        ]
      },
      "properties": {
        "name": "청진 방공 기지"
      }
    },
    {
      "type": "Feature",
      "geometry": {
        "type": "Point",
        "coordinates": [
          125.7410885,
          39.01578281
        ]
      },
      "properties": {
        "name": "조선로동당 중앙위원회 국제부"
      }
    },
    {
      "type": "Feature",
      "geometry": {
        "type": "Point",
        "coordinates": [
          125.7406197,
          39.01913866
        ]
      },
      "properties": {
        "name": "조선로동당 중앙위원회 선전선동부"
      }
    },
    {
      "type": "Feature",
      "geometry": {
        "type": "Point",
        "coordinates": [
          125.7400129,
          39.01700766
        ]
      },
      "properties": {
        "name": "조선로동당 중앙위원회 당역사연구소"
      }
    },
    {
      "type": "Feature",
      "geometry": {
        "type": "Point",
        "coordinates": [
          126.1173209,
          38.24029619
        ]
      },
      "properties": {
        "name": "린산비행장"
      }
    },
    {
      "type": "Feature",
      "geometry": {
        "type": "Point",
        "coordinates": [
          124.8324989,
          38.55198789
        ]
      },
      "properties": {
        "name": "초도비행장"
      }
    },
    {
      "type": "Feature",
      "geometry": {
        "type": "Point",
        "coordinates": [
          124.8374422,
          39.91961302
        ]
      },
      "properties": {
        "name": "선천헬리콥터비행장"
      }
    },
    {
      "type": "Feature",
      "geometry": {
        "type": "Point",
        "coordinates": [
          129.9350094,
          42.5367154
        ]
      },
      "properties": {
        "name": "행정 사무실"
      }
    },
    {
      "type": "Feature",
      "geometry": {
        "type": "Point",
        "coordinates": [
          129.9353612,
          42.53645442
        ]
      },
      "properties": {
        "name": "야간 경비 근무실"
      }
    },
    {
      "type": "Feature",
      "geometry": {
        "type": "Point",
        "coordinates": [
          129.1072517,
          41.22001095
        ]
      },
      "properties": {
        "name": "남부 지원 구역"
      }
    },
    {
      "type": "Feature",
      "geometry": {
        "type": "Point",
        "coordinates": [
          129.1093525,
          41.22689027
        ]
      },
      "properties": {
        "name": "지휘본부"
      }
    },
    {
      "type": "Feature",
      "geometry": {
        "type": "Point",
        "coordinates": [
          125.7961565,
          39.0229755
        ]
      },
      "properties": {
        "name": "식량농업기구영구임무"
      }
    },
    {
      "type": "Feature",
      "geometry": {
        "type": "Point",
        "coordinates": [
          125.798068,
          39.0255176
        ]
      },
      "properties": {
        "name": "팔레스티나 대사관"
      }
    },
    {
      "type": "Feature",
      "geometry": {
        "type": "Point",
        "coordinates": [
          125.791847,
          39.02265618
        ]
      },
      "properties": {
        "name": "스웨리예대사관"
      }
    },
    {
      "type": "Feature",
      "geometry": {
        "type": "Point",
        "coordinates": [
          125.7922879,
          39.02306209
        ]
      },
      "properties": {
        "name": "도이칠란트 대사관"
      }
    },
    {
      "type": "Feature",
      "geometry": {
        "type": "Point",
        "coordinates": [
          128.2100741,
          39.99721506
        ]
      },
      "properties": {
        "name": "조선인민군 해군 제167군부대"
      }
    },
    {
      "type": "Feature",
      "geometry": {
        "type": "Point",
        "coordinates": [
          125.7388358,
          39.03629188
        ]
      },
      "properties": {
        "name": "보통강구역 인민위원회"
      }
    },
    {
      "type": "Feature",
      "geometry": {
        "type": "Point",
        "coordinates": [
          125.7396678,
          39.03699646
        ]
      },
      "properties": {
        "name": "보통강구역군사동원부"
      }
    },
    {
      "type": "Feature",
      "geometry": {
        "type": "Point",
        "coordinates": [
          125.7392313,
          39.03658947
        ]
      },
      "properties": {
        "name": "보통강구역 당위원회"
      }
    },
    {
      "type": "Feature",
      "geometry": {
        "type": "Point",
        "coordinates": [
          127.4286201,
          39.17245332
        ]
      },
      "properties": {
        "name": "원산시 인민위원회"
      }
    },
    {
      "type": "Feature",
      "geometry": {
        "type": "Point",
        "coordinates": [
          125.7925737,
          39.02264133
        ]
      },
      "properties": {
        "name": "영국대사관"
      }
    },
    {
      "type": "Feature",
      "geometry": {
        "type": "Point",
        "coordinates": [
          127.7795546,
          39.87568702
        ]
      },
      "properties": {
        "name": "동해함대사령부"
      }
    },
    {
      "type": "Feature",
      "geometry": {
        "type": "Point",
        "coordinates": [
          127.424113,
          39.31955361
        ]
      },
      "properties": {
        "name": "어뢰 경비정 전대"
      }
    },
    {
      "type": "Feature",
      "geometry": {
        "type": "Point",
        "coordinates": [
          125.7587588,
          37.80148185
        ]
      },
      "properties": {
        "name": "포 진지"
      }
    },
    {
      "type": "Feature",
      "geometry": {
        "type": "Point",
        "coordinates": [
          125.7682943,
          37.79950216
        ]
      },
      "properties": {
        "name": "포 진지"
      }
    },
    {
      "type": "Feature",
      "geometry": {
        "type": "Point",
        "coordinates": [
          125.1163926,
          39.72660072
        ]
      },
      "properties": {
        "name": "곽산비행장"
      }
    },
    {
      "type": "Feature",
      "geometry": {
        "type": "Point",
        "coordinates": [
          124.4994806,
          40.15149269
        ]
      },
      "properties": {
        "name": "의주비행장"
      }
    },
    {
      "type": "Feature",
      "geometry": {
        "type": "Point",
        "coordinates": [
          125.7459809,
          39.02446541
        ]
      },
      "properties": {
        "name": "로씨야대사관"
      }
    },
    {
      "type": "Feature",
      "geometry": {
        "type": "Point",
        "coordinates": [
          125.7734412,
          39.8248663
        ]
      },
      "properties": {
        "name": "대공 진지"
      }
    },
    {
      "type": "Feature",
      "geometry": {
        "type": "Point",
        "coordinates": [
          125.7499465,
          39.13938626
        ]
      },
      "properties": {
        "name": "김정일정치군사대학"
      }
    },
    {
      "type": "Feature",
      "geometry": {
        "type": "Point",
        "coordinates": [
          127.4073976,
          38.90133712
        ]
      },
      "properties": {
        "name": "대공 진지"
      }
    },
    {
      "type": "Feature",
      "geometry": {
        "type": "Point",
        "coordinates": [
          125.7981546,
          39.02626937
        ]
      },
      "properties": {
        "name": "체스코대사관"
      }
    },
    {
      "type": "Feature",
      "geometry": {
        "type": "Point",
        "coordinates": [
          127.4722574,
          39.74833055
        ]
      },
      "properties": {
        "name": "선덕비행장"
      }
    },
    {
      "type": "Feature",
      "geometry": {
        "type": "Point",
        "coordinates": [
          127.5605834,
          39.80140622
        ]
      },
      "properties": {
        "name": "마군포 시험장"
      }
    },
    {
      "type": "Feature",
      "geometry": {
        "type": "Point",
        "coordinates": [
          125.7887624,
          39.0208351
        ]
      },
      "properties": {
        "name": "브라질 대사관"
      }
    },
    {
      "type": "Feature",
      "geometry": {
        "type": "Point",
        "coordinates": [
          125.7500915,
          39.0169275
        ]
      },
      "properties": {
        "name": "조선로동당 평양시당위원회"
      }
    },
    {
      "type": "Feature",
      "geometry": {
        "type": "Point",
        "coordinates": [
          125.7529829,
          39.05458317
        ]
      },
      "properties": {
        "name": "중국대사관"
      }
    },
    {
      "type": "Feature",
      "geometry": {
        "type": "Point",
        "coordinates": [
          130.0518959,
          42.95210278
        ]
      },
      "properties": {
        "name": "대공 진지"
      }
    },
    {
      "type": "Feature",
      "geometry": {
        "type": "Point",
        "coordinates": [
          125.7985577,
          39.02438874
        ]
      },
      "properties": {
        "name": "벌가리아대사관"
      }
    },
    {
      "type": "Feature",
      "geometry": {
        "type": "Point",
        "coordinates": [
          125.7907319,
          39.02416085
        ]
      },
      "properties": {
        "name": "총국 사무소"
      }
    },
    {
      "type": "Feature",
      "geometry": {
        "type": "Point",
        "coordinates": [
          125.7895778,
          39.02289132
        ]
      },
      "properties": {
        "name": "인도네시아대사관"
      }
    },
    {
      "type": "Feature",
      "geometry": {
        "type": "Point",
        "coordinates": [
          125.7928323,
          39.02190333
        ]
      },
      "properties": {
        "name": "인디아대사관"
      }
    },
    {
      "type": "Feature",
      "geometry": {
        "type": "Point",
        "coordinates": [
          125.7914595,
          39.02444663
        ]
      },
      "properties": {
        "name": "꾸바대사관"
      }
    },
    {
      "type": "Feature",
      "geometry": {
        "type": "Point",
        "coordinates": [
          125.7338261,
          39.00900926
        ]
      },
      "properties": {
        "name": "조선민주주의인민공화국 륙해운성"
      }
    },
    {
      "type": "Feature",
      "geometry": {
        "type": "Point",
        "coordinates": [
          128.1691447,
          40.0284506
        ]
      },
      "properties": {
        "name": "신포 남조선소"
      }
    },
    {
      "type": "Feature",
      "geometry": {
        "type": "Point",
        "coordinates": [
          125.7905184,
          38.64915138
        ]
      },
      "properties": {
        "name": "황주비행장"
      }
    },
    {
      "type": "Feature",
      "geometry": {
        "type": "Point",
        "coordinates": [
          125.5770042,
          37.74168839
        ]
      },
      "properties": {
        "name": "무도방위대"
      }
    },
    {
      "type": "Feature",
      "geometry": {
        "type": "Point",
        "coordinates": [
          125.0473233,
          40.38707985
        ]
      },
      "properties": {
        "name": "삭주군인민위원회"
      }
    },
    {
      "type": "Feature",
      "geometry": {
        "type": "Point",
        "coordinates": [
          125.7781902,
          39.0229669
        ]
      },
      "properties": {
        "name": "조선직업총동맹중앙위원회"
      }
    },
    {
      "type": "Feature",
      "geometry": {
        "type": "Point",
        "coordinates": [
          125.7852687,
          39.03615676
        ]
      },
      "properties": {
        "name": "이란대사관"
      }
    },
    {
      "type": "Feature",
      "geometry": {
        "type": "Point",
        "coordinates": [
          125.7852776,
          39.03534945
        ]
      },
      "properties": {
        "name": "로므니아대사관"
      }
    },
    {
      "type": "Feature",
      "geometry": {
        "type": "Point",
        "coordinates": [
          125.7941349,
          39.02253587
        ]
      },
      "properties": {
        "name": "몽골국대사관"
      }
    },
    {
      "type": "Feature",
      "geometry": {
        "type": "Point",
        "coordinates": [
          125.7936622,
          39.02362594
        ]
      },
      "properties": {
        "name": "베네수엘라대사관"
      }
    },
    {
      "type": "Feature",
      "geometry": {
        "type": "Point",
        "coordinates": [
          125.7954548,
          39.02360547
        ]
      },
      "properties": {
        "name": "세계보건기구영구임무"
      }
    },
    {
      "type": "Feature",
      "geometry": {
        "type": "Point",
        "coordinates": [
          126.6749514,
          37.9570102
        ]
      },
      "properties": {
        "name": "공동경비구역"
      }
    },
    {
      "type": "Feature",
      "geometry": {
        "type": "Point",
        "coordinates": [
          125.7459192,
          39.01178925
        ]
      },
      "properties": {
        "name": "보건성1.25제작사"
      }
    },
    {
      "type": "Feature",
      "geometry": {
        "type": "Point",
        "coordinates": [
          128.179246,
          41.40227308
        ]
      },
      "properties": {
        "name": "량강도당위원회"
      }
    },
    {
      "type": "Feature",
      "geometry": {
        "type": "Point",
        "coordinates": [
          125.7495814,
          39.0287378
        ]
      },
      "properties": {
        "name": "만수대의사당"
      }
    },
    {
      "type": "Feature",
      "geometry": {
        "type": "Point",
        "coordinates": [
          125.7343039,
          39.027063
        ]
      },
      "properties": {
        "name": "국제통신국"
      }
    },
    {
      "type": "Feature",
      "geometry": {
        "type": "Point",
        "coordinates": [
          125.7332431,
          39.02652536
        ]
      },
      "properties": {
        "name": "금성청년출판사"
      }
    },
    {
      "type": "Feature",
      "geometry": {
        "type": "Point",
        "coordinates": [
          127.4467308,
          38.59973298
        ]
      },
      "properties": {
        "name": "대공 포병 부지"
      }
    },
    {
      "type": "Feature",
      "geometry": {
        "type": "Point",
        "coordinates": [
          127.4617293,
          38.62109085
        ]
      },
      "properties": {
        "name": "대공 진지"
      }
    },
    {
      "type": "Feature",
      "geometry": {
        "type": "Point",
        "coordinates": [
          125.6333843,
          39.04392779
        ]
      },
      "properties": {
        "name": "조선민주주의인민공화국보위대학"
      }
    },
    {
      "type": "Feature",
      "geometry": {
        "type": "Point",
        "coordinates": [
          130.3072701,
          42.24322775
        ]
      },
      "properties": {
        "name": "동북아시아전화통신회사"
      }
    },
    {
      "type": "Feature",
      "geometry": {
        "type": "Point",
        "coordinates": [
          126.7198524,
          38.68515437
        ]
      },
      "properties": {
        "name": "칼골 미사일 기지"
      }
    },
    {
      "type": "Feature",
      "geometry": {
        "type": "Point",
        "coordinates": [
          127.4108601,
          39.09221046
        ]
      },
      "properties": {
        "name": "강다리비행장"
      }
    },
    {
      "type": "Feature",
      "geometry": {
        "type": "Point",
        "coordinates": [
          127.399647,
          39.09681476
        ]
      },
      "properties": {
        "name": "강다리 고속도로 활주로"
      }
    },
    {
      "type": "Feature",
      "geometry": {
        "type": "Point",
        "coordinates": [
          125.7533764,
          39.01217967
        ]
      },
      "properties": {
        "name": "김일성김정일기금"
      }
    },
    {
      "type": "Feature",
      "geometry": {
        "type": "Point",
        "coordinates": [
          125.7524455,
          39.0199489
        ]
      },
      "properties": {
        "name": "김일성광장"
      }
    },
    {
      "type": "Feature",
      "geometry": {
        "type": "Point",
        "coordinates": [
          125.7486342,
          39.01104025
        ]
      },
      "properties": {
        "name": "교육도서출판사"
      }
    },
    {
      "type": "Feature",
      "geometry": {
        "type": "Point",
        "coordinates": [
          128.2746627,
          41.85751975
        ]
      },
      "properties": {
        "name": "지도자 관저"
      }
    },
    {
      "type": "Feature",
      "geometry": {
        "type": "Point",
        "coordinates": [
          129.6616842,
          40.8570605
        ]
      },
      "properties": {
        "name": "동해위성발사장"
      }
    },
    {
      "type": "Feature",
      "geometry": {
        "type": "Point",
        "coordinates": [
          128.2521521,
          38.47337509
        ]
      },
      "properties": {
        "name": "포병 기지"
      }
    },
    {
      "type": "Feature",
      "geometry": {
        "type": "Point",
        "coordinates": [
          127.2638234,
          40.36807018
        ]
      },
      "properties": {
        "name": "장진비행장"
      }
    },
    {
      "type": "Feature",
      "geometry": {
        "type": "Point",
        "coordinates": [
          127.9050137,
          38.86542935
        ]
      },
      "properties": {
        "name": "구읍리비행장"
      }
    },
    {
      "type": "Feature",
      "geometry": {
        "type": "Point",
        "coordinates": [
          125.2289678,
          38.12296273
        ]
      },
      "properties": {
        "name": "태탄비행장"
      }
    },
    {
      "type": "Feature",
      "geometry": {
        "type": "Point",
        "coordinates": [
          125.8958584,
          39.41359618
        ]
      },
      "properties": {
        "name": "순천비행장"
      }
    },
    {
      "type": "Feature",
      "geometry": {
        "type": "Point",
        "coordinates": [
          125.9599002,
          39.51319655
        ]
      },
      "properties": {
        "name": "북창비행장"
      }
    },
    {
      "type": "Feature",
      "geometry": {
        "type": "Point",
        "coordinates": [
          125.9046597,
          39.75263878
        ]
      },
      "properties": {
        "name": "개천비행장"
      }
    },
    {
      "type": "Feature",
      "geometry": {
        "type": "Point",
        "coordinates": [
          125.4912451,
          39.90532403
        ]
      },
      "properties": {
        "name": "태천비행장"
      }
    },
    {
      "type": "Feature",
      "geometry": {
        "type": "Point",
        "coordinates": [
          125.2349878,
          38.90847824
        ]
      },
      "properties": {
        "name": "온천비행장"
      }
    },
    {
      "type": "Feature",
      "geometry": {
        "type": "Point",
        "coordinates": [
          129.1049247,
          41.23423588
        ]
      },
      "properties": {
        "name": "북부핵시험장"
      }
    },
    {
      "type": "Feature",
      "geometry": {
        "type": "Point",
        "coordinates": [
          127.5880604,
          39.8239857
        ]
      },
      "properties": {
        "name": "제17호 공장 - 로켓 엔진 생산 시설"
      }
    },
    {
      "type": "Feature",
      "geometry": {
        "type": "Point",
        "coordinates": [
          127.5851209,
          39.82400933
        ]
      },
      "properties": {
        "name": "17호 공장"
      }
    },
    {
      "type": "Feature",
      "geometry": {
        "type": "Point",
        "coordinates": [
          126.6585037,
          37.9667356
        ]
      },
      "properties": {
        "name": "구 체코·폴란드 중립국 감독위원회 부대"
      }
    },
    {
      "type": "Feature",
      "geometry": {
        "type": "Point",
        "coordinates": [
          128.1580702,
          40.01758675
        ]
      },
      "properties": {
        "name": "신포 조선소"
      }
    },
    {
      "type": "Feature",
      "geometry": {
        "type": "Point",
        "coordinates": [
          128.1665537,
          40.025424
        ]
      },
      "properties": {
        "name": "선박 정박지"
      }
    },
    {
      "type": "Feature",
      "geometry": {
        "type": "Point",
        "coordinates": [
          127.4571722,
          38.59821352
        ]
      },
      "properties": {
        "name": "대공 진지"
      }
    },
    {
      "type": "Feature",
      "geometry": {
        "type": "Point",
        "coordinates": [
          125.886345,
          39.71441844
        ]
      },
      "properties": {
        "name": "포병 부대"
      }
    },
    {
      "type": "Feature",
      "geometry": {
        "type": "Point",
        "coordinates": [
          125.7472622,
          39.01665202
        ]
      },
      "properties": {
        "name": "평양시인민위원회"
      }
    },
    {
      "type": "Feature",
      "geometry": {
        "type": "Point",
        "coordinates": [
          125.6570551,
          39.00515656
        ]
      },
      "properties": {
        "name": "김일성군사종합대학 김정일군사연구원"
      }
    },
    {
      "type": "Feature",
      "geometry": {
        "type": "Point",
        "coordinates": [
          127.8387718,
          39.00887793
        ]
      },
      "properties": {
        "name": "시중호해수욕장 봉사실"
      }
    },
    {
      "type": "Feature",
      "geometry": {
        "type": "Point",
        "coordinates": [
          124.3848858,
          40.0983851
        ]
      },
      "properties": {
        "name": "평안북도인민위원회"
      }
    },
    {
      "type": "Feature",
      "geometry": {
        "type": "Point",
        "coordinates": [
          124.3942364,
          40.10513028
        ]
      },
      "properties": {
        "name": "조선로동당 평안북도당위원회"
      }
    },
    {
      "type": "Feature",
      "geometry": {
        "type": "Point",
        "coordinates": [
          125.7607355,
          39.05457705
        ]
      },
      "properties": {
        "name": "조선중앙방송위원회"
      }
    },
    {
      "type": "Feature",
      "geometry": {
        "type": "Point",
        "coordinates": [
          125.7555929,
          39.02386271
        ]
      },
      "properties": {
        "name": "사회과학원"
      }
    },
    {
      "type": "Feature",
      "geometry": {
        "type": "Point",
        "coordinates": [
          126.1182492,
          38.58084219
        ]
      },
      "properties": {
        "name": "삭칸몰 미사일 작전기지"
      }
    },
    {
      "type": "Feature",
      "geometry": {
        "type": "Point",
        "coordinates": [
          127.4332224,
          39.31441321
        ]
      },
      "properties": {
        "name": "ACV 상륙 호버크래프트"
      }
    },
    {
      "type": "Feature",
      "geometry": {
        "type": "Point",
        "coordinates": [
          127.4495174,
          39.37244142
        ]
      },
      "properties": {
        "name": "ACV 상륙 호버크래프트"
      }
    },
    {
      "type": "Feature",
      "geometry": {
        "type": "Point",
        "coordinates": [
          127.4389179,
          39.3740086
        ]
      },
      "properties": {
        "name": "ACV 상륙 호버크래프트"
      }
    },
    {
      "type": "Feature",
      "geometry": {
        "type": "Point",
        "coordinates": [
          129.8037407,
          41.78826608
        ]
      },
      "properties": {
        "name": "청진시 당위원회"
      }
    },
    {
      "type": "Feature",
      "geometry": {
        "type": "Point",
        "coordinates": [
          129.7924508,
          41.79015274
        ]
      },
      "properties": {
        "name": "함경북도 당위원회"
      }
    },
    {
      "type": "Feature",
      "geometry": {
        "type": "Point",
        "coordinates": [
          128.3154788,
          41.81492141
        ]
      },
      "properties": {
        "name": "조선인민군 답사숙영소"
      }
    },
    {
      "type": "Feature",
      "geometry": {
        "type": "Point",
        "coordinates": [
          128.3201904,
          41.80471273
        ]
      },
      "properties": {
        "name": "동분주소"
      }
    },
    {
      "type": "Feature",
      "geometry": {
        "type": "Point",
        "coordinates": [
          128.3251172,
          41.80455905
        ]
      },
      "properties": {
        "name": "삼지연시인민위원회"
      }
    },
    {
      "type": "Feature",
      "geometry": {
        "type": "Point",
        "coordinates": [
          128.1480163,
          40.0111498
        ]
      },
      "properties": {
        "name": "지하 잠수함 은닉처"
      }
    },
    {
      "type": "Feature",
      "geometry": {
        "type": "Point",
        "coordinates": [
          125.662787,
          39.18007841
        ]
      },
      "properties": {
        "name": "신리탄도미사일시설"
      }
    },
    {
      "type": "Feature",
      "geometry": {
        "type": "Point",
        "coordinates": [
          126.5862495,
          40.96632864
        ]
      },
      "properties": {
        "name": "외룡동 사회안전성 사무소"
      }
    },
    {
      "type": "Feature",
      "geometry": {
        "type": "Point",
        "coordinates": [
          125.7635603,
          39.00270832
        ]
      },
      "properties": {
        "name": "국가과학원 중앙버섯연구소"
      }
    },
    {
      "type": "Feature",
      "geometry": {
        "type": "Point",
        "coordinates": [
          125.7146426,
          38.04983557
        ]
      },
      "properties": {
        "name": "조선인민군륙군 제4군단"
      }
    },
    {
      "type": "Feature",
      "geometry": {
        "type": "Point",
        "coordinates": [
          126.6021491,
          38.68663362
        ]
      },
      "properties": {
        "name": "곡산비행장"
      }
    },
    {
      "type": "Feature",
      "geometry": {
        "type": "Point",
        "coordinates": [
          125.645421,
          39.01758741
        ]
      },
      "properties": {
        "name": "중앙검찰소"
      }
    },
    {
      "type": "Feature",
      "geometry": {
        "type": "Point",
        "coordinates": [
          125.7443489,
          39.01759976
        ]
      },
      "properties": {
        "name": "조선로동당 중앙위원회"
      }
    },
    {
      "type": "Feature",
      "geometry": {
        "type": "Point",
        "coordinates": [
          125.7684174,
          39.07470098
        ]
      },
      "properties": {
        "name": "국가보위성"
      }
    },
    {
      "type": "Feature",
      "geometry": {
        "type": "Point",
        "coordinates": [
          125.7692604,
          39.08033864
        ]
      },
      "properties": {
        "name": "사회안전성"
      }
    },
    {
      "type": "Feature",
      "geometry": {
        "type": "Point",
        "coordinates": [
          125.7325238,
          38.99374479
        ]
      },
      "properties": {
        "name": "기상수문국"
      }
    },
    {
      "type": "Feature",
      "geometry": {
        "type": "Point",
        "coordinates": [
          129.8203168,
          41.78371627
        ]
      },
      "properties": {
        "name": "청진시 인민위원회"
      }
    },
    {
      "type": "Feature",
      "geometry": {
        "type": "Point",
        "coordinates": [
          129.8041298,
          41.78950716
        ]
      },
      "properties": {
        "name": "함경북도 인민위원회"
      }
    },
    {
      "type": "Feature",
      "geometry": {
        "type": "Point",
        "coordinates": [
          125.7684028,
          39.06885435
        ]
      },
      "properties": {
        "name": "평양화학공업전문학교"
      }
    },
    {
      "type": "Feature",
      "geometry": {
        "type": "Point",
        "coordinates": [
          128.2050287,
          41.37843915
        ]
      },
      "properties": {
        "name": "혜산비행장"
      }
    },
    {
      "type": "Feature",
      "geometry": {
        "type": "Point",
        "coordinates": [
          128.1763514,
          41.40253259
        ]
      },
      "properties": {
        "name": "혜산시인민위원회"
      }
    },
    {
      "type": "Feature",
      "geometry": {
        "type": "Point",
        "coordinates": [
          128.3220404,
          41.80794201
        ]
      },
      "properties": {
        "name": "삼지연시사회안전성"
      }
    },
    {
      "type": "Feature",
      "geometry": {
        "type": "Point",
        "coordinates": [
          128.3143572,
          41.80502276
        ]
      },
      "properties": {
        "name": "삼지연시국가보위성"
      }
    },
    {
      "type": "Feature",
      "geometry": {
        "type": "Point",
        "coordinates": [
          128.3194408,
          41.79678541
        ]
      },
      "properties": {
        "name": "국가보위성 15국"
      }
    },
    {
      "type": "Feature",
      "geometry": {
        "type": "Point",
        "coordinates": [
          128.3194198,
          41.7977379
        ]
      },
      "properties": {
        "name": "삼지연시발전소운영사업소"
      }
    },
    {
      "type": "Feature",
      "geometry": {
        "type": "Point",
        "coordinates": [
          128.3196814,
          41.80465298
        ]
      },
      "properties": {
        "name": "조선인민군 삼지연경무초소"
      }
    },
    {
      "type": "Feature",
      "geometry": {
        "type": "Point",
        "coordinates": [
          128.1791468,
          41.39580826
        ]
      },
      "properties": {
        "name": "량강도사회안전성"
      }
    },
    {
      "type": "Feature",
      "geometry": {
        "type": "Point",
        "coordinates": [
          128.175906,
          41.39907341
        ]
      },
      "properties": {
        "name": "량강도검찰소"
      }
    },
    {
      "type": "Feature",
      "geometry": {
        "type": "Point",
        "coordinates": [
          126.1594674,
          39.19218461
        ]
      },
      "properties": {
        "name": "조선인민군 전략군사령부"
      }
    },
    {
      "type": "Feature",
      "geometry": {
        "type": "Point",
        "coordinates": [
          126.716566,
          38.6564331
        ]
      },
      "properties": {
        "name": "조선인민군 근위 서울류경수 제105땅크사단 사령부"
      }
    },
    {
      "type": "Feature",
      "geometry": {
        "type": "Point",
        "coordinates": [
          126.7178462,
          38.65642958
        ]
      },
      "properties": {
        "name": "조선인민군 근위 서울류경수 제105땅크사단"
      }
    },
    {
      "type": "Feature",
      "geometry": {
        "type": "Point",
        "coordinates": [
          125.8066194,
          38.87008049
        ]
      },
      "properties": {
        "name": "조선인민군 공군 지휘부"
      }
    },
    {
      "type": "Feature",
      "geometry": {
        "type": "Point",
        "coordinates": [
          125.8166954,
          39.19255387
        ]
      },
      "properties": {
        "name": "조선인민군 해군 지휘부"
      }
    },
    {
      "type": "Feature",
      "geometry": {
        "type": "Point",
        "coordinates": [
          125.8594255,
          39.25380997
        ]
      },
      "properties": {
        "name": "평안남도인민위원회"
      }
    },
    {
      "type": "Feature",
      "geometry": {
        "type": "Point",
        "coordinates": [
          125.8562962,
          39.24434741
        ]
      },
      "properties": {
        "name": "평안남도사회안전성"
      }
    },
    {
      "type": "Feature",
      "geometry": {
        "type": "Point",
        "coordinates": [
          125.3992451,
          38.72572744
        ]
      },
      "properties": {
        "name": "남포시인민위원회"
      }
    },
    {
      "type": "Feature",
      "geometry": {
        "type": "Point",
        "coordinates": [
          125.3997291,
          38.72874333
        ]
      },
      "properties": {
        "name": "김일성-김정일주의 연구실"
      }
    },
    {
      "type": "Feature",
      "geometry": {
        "type": "Point",
        "coordinates": [
          126.550273,
          37.97243949
        ]
      },
      "properties": {
        "name": "개성시인민위원회"
      }
    },
    {
      "type": "Feature",
      "geometry": {
        "type": "Point",
        "coordinates": [
          130.5173443,
          42.56869411
        ]
      },
      "properties": {
        "name": "권하통상구"
      }
    },
    {
      "type": "Feature",
      "geometry": {
        "type": "Point",
        "coordinates": [
          125.8112527,
          39.15852441
        ]
      },
      "properties": {
        "name": "명오동 10호초소"
      }
    },
    {
      "type": "Feature",
      "geometry": {
        "type": "Point",
        "coordinates": [
          125.815076,
          39.18704957
        ]
      },
      "properties": {
        "name": "민방위대학"
      }
    },
    {
      "type": "Feature",
      "geometry": {
        "type": "Point",
        "coordinates": [
          125.8425445,
          39.1828084
        ]
      },
      "properties": {
        "name": "동북리10호초소"
      }
    },
    {
      "type": "Feature",
      "geometry": {
        "type": "Point",
        "coordinates": [
          125.7374786,
          39.0067714
        ]
      },
      "properties": {
        "name": "국가해사감독국"
      }
    },
    {
      "type": "Feature",
      "geometry": {
        "type": "Point",
        "coordinates": [
          125.7470859,
          39.00727107
        ]
      },
      "properties": {
        "name": "중앙검찰소"
      }
    },
    {
      "type": "Feature",
      "geometry": {
        "type": "Point",
        "coordinates": [
          125.6901081,
          39.03289356
        ]
      },
      "properties": {
        "name": "국가관광총국"
      }
    },
    {
      "type": "Feature",
      "geometry": {
        "type": "Point",
        "coordinates": [
          125.7045127,
          39.02794575
        ]
      },
      "properties": {
        "name": "131지도국"
      }
    },
    {
      "type": "Feature",
      "geometry": {
        "type": "Point",
        "coordinates": [
          125.7010632,
          39.03814493
        ]
      },
      "properties": {
        "name": "만경대구역청년동맹위원회"
      }
    },
    {
      "type": "Feature",
      "geometry": {
        "type": "Point",
        "coordinates": [
          125.6993251,
          39.03945906
        ]
      },
      "properties": {
        "name": "만경대구역당위원회"
      }
    },
    {
      "type": "Feature",
      "geometry": {
        "type": "Point",
        "coordinates": [
          125.7002287,
          39.04090852
        ]
      },
      "properties": {
        "name": "국토환경보호성"
      }
    },
    {
      "type": "Feature",
      "geometry": {
        "type": "Point",
        "coordinates": [
          125.7004394,
          39.04055118
        ]
      },
      "properties": {
        "name": "도시경영성"
      }
    },
    {
      "type": "Feature",
      "geometry": {
        "type": "Point",
        "coordinates": [
          125.7001634,
          39.04185567
        ]
      },
      "properties": {
        "name": "만경대구역 군사동원부"
      }
    },
    {
      "type": "Feature",
      "geometry": {
        "type": "Point",
        "coordinates": [
          125.7208032,
          39.03385574
        ]
      },
      "properties": {
        "name": "외국인학교"
      }
    },
    {
      "type": "Feature",
      "geometry": {
        "type": "Point",
        "coordinates": [
          125.7226139,
          39.03515897
        ]
      },
      "properties": {
        "name": "국가전파감독국"
      }
    },
    {
      "type": "Feature",
      "geometry": {
        "type": "Point",
        "coordinates": [
          125.7358723,
          39.0291114
        ]
      },
      "properties": {
        "name": "보통강초급중학교"
      }
    },
    {
      "type": "Feature",
      "geometry": {
        "type": "Point",
        "coordinates": [
          125.7379505,
          39.02850617
        ]
      },
      "properties": {
        "name": "조선중앙통신사"
      }
    },
    {
      "type": "Feature",
      "geometry": {
        "type": "Point",
        "coordinates": [
          125.751692,
          39.0390702
        ]
      },
      "properties": {
        "name": "출판검열국"
      }
    },
    {
      "type": "Feature",
      "geometry": {
        "type": "Point",
        "coordinates": [
          125.7478484,
          39.03934995
        ]
      },
      "properties": {
        "name": "대외선전국"
      }
    },
    {
      "type": "Feature",
      "geometry": {
        "type": "Point",
        "coordinates": [
          125.7493828,
          39.03378927
        ]
      },
      "properties": {
        "name": "호위사령부"
      }
    },
    {
      "type": "Feature",
      "geometry": {
        "type": "Point",
        "coordinates": [
          125.731864,
          38.99348094
        ]
      },
      "properties": {
        "name": "김책공업종합대학 자동화연구소"
      }
    },
    {
      "type": "Feature",
      "geometry": {
        "type": "Point",
        "coordinates": [
          125.7468472,
          39.00750785
        ]
      },
      "properties": {
        "name": "중앙검찰소"
      }
    },
    {
      "type": "Feature",
      "geometry": {
        "type": "Point",
        "coordinates": [
          126.606232,
          40.96032076
        ]
      },
      "properties": {
        "name": "강계뜨락또르종합공장"
      }
    },
    {
      "type": "Feature",
      "geometry": {
        "type": "Point",
        "coordinates": [
          127.3663131,
          39.15802194
        ]
      },
      "properties": {
        "name": "폭발물 저장 구역"
      }
    },
    {
      "type": "Feature",
      "geometry": {
        "type": "Point",
        "coordinates": [
          125.6130031,
          39.02956211
        ]
      },
      "properties": {
        "name": "주체 아카데미"
      }
    },
    {
      "type": "Feature",
      "geometry": {
        "type": "Point",
        "coordinates": [
          125.7495814,
          39.0287378
        ]
      },
      "properties": {
        "name": "만수대의사당"
      }
    },
    {
      "type": "Feature",
      "geometry": {
        "type": "Point",
        "coordinates": [
          125.7531781,
          39.0448254
        ]
      },
      "properties": {
        "name": "개선문"
      }
    },
    {
      "type": "Feature",
      "geometry": {
        "type": "Point",
        "coordinates": [
          125.7635364,
          39.0178794
        ]
      },
      "properties": {
        "name": "주체사상탑"
      }
    },
    {
      "type": "Feature",
      "geometry": {
        "type": "Point",
        "coordinates": [
          126.0846907,
          38.58269298
        ]
      },
      "properties": {
        "name": "삭간몰 미사일 기지"
      }
    },
    {
      "type": "Feature",
      "geometry": {
        "type": "Point",
        "coordinates": [
          127.5964278,
          38.96476286
        ]
      },
      "properties": {
        "name": "금천리 미사일 기지"
      }
    },
    {
      "type": "Feature",
      "geometry": {
        "type": "Point",
        "coordinates": [
          125.339819,
          40.00046624
        ]
      },
      "properties": {
        "name": "용덕 폭발물 시험장"
      }
    },
    {
      "type": "Feature",
      "geometry": {
        "type": "Point",
        "coordinates": [
          127.1278811,
          39.1220702
        ]
      },
      "properties": {
        "name": "마전리 기지"
      }
    },
    {
      "type": "Feature",
      "geometry": {
        "type": "Point",
        "coordinates": [
          125.7292485,
          39.01900598
        ]
      },
      "properties": {
        "name": "사회주의애국청년동맹중앙위원회"
      }
    },
    {
      "type": "Feature",
      "geometry": {
        "type": "Point",
        "coordinates": [
          125.7468907,
          39.00732032
        ]
      },
      "properties": {
        "name": "중앙검찰소"
      }
    },
    {
      "type": "Feature",
      "geometry": {
        "type": "Point",
        "coordinates": [
          125.7846169,
          39.03365574
        ]
      },
      "properties": {
        "name": "에짚트대사관"
      }
    },
    {
      "type": "Feature",
      "geometry": {
        "type": "Point",
        "coordinates": [
          125.7848612,
          39.034584
        ]
      },
      "properties": {
        "name": "스위스개발협력청상주사무소"
      }
    },
    {
      "type": "Feature",
      "geometry": {
        "type": "Point",
        "coordinates": [
          125.7939898,
          39.02980452
        ]
      },
      "properties": {
        "name": "김형직군의대학"
      }
    },
    {
      "type": "Feature",
      "geometry": {
        "type": "Point",
        "coordinates": [
          125.7965325,
          39.02378608
        ]
      },
      "properties": {
        "name": "파키스딴대사관"
      }
    },
    {
      "type": "Feature",
      "geometry": {
        "type": "Point",
        "coordinates": [
          125.7908442,
          39.02230941
        ]
      },
      "properties": {
        "name": "윁남대사관"
      }
    },
    {
      "type": "Feature",
      "geometry": {
        "type": "Point",
        "coordinates": [
          125.7973979,
          39.02498981
        ]
      },
      "properties": {
        "name": "팔레스타인 거주지"
      }
    },
    {
      "type": "Feature",
      "geometry": {
        "type": "Point",
        "coordinates": [
          125.7957936,
          39.02441195
        ]
      },
      "properties": {
        "name": "수리아대사관"
      }
    },
    {
      "type": "Feature",
      "geometry": {
        "type": "Point",
        "coordinates": [
          125.7960695,
          39.02405268
        ]
      },
      "properties": {
        "name": "리비아대사관"
      }
    },
    {
      "type": "Feature",
      "geometry": {
        "type": "Point",
        "coordinates": [
          125.7910379,
          39.02348006
        ]
      },
      "properties": {
        "name": "캄보쟈대사관"
      }
    },
    {
      "type": "Feature",
      "geometry": {
        "type": "Point",
        "coordinates": [
          129.736302,
          42.4599144
        ]
      },
      "properties": {
        "name": "국경 관리소"
      }
    },
    {
      "type": "Feature",
      "geometry": {
        "type": "Point",
        "coordinates": [
          126.5885613,
          40.96250441
        ]
      },
      "properties": {
        "name": "사회안전성 자강도보안국"
      }
    },
    {
      "type": "Feature",
      "geometry": {
        "type": "Point",
        "coordinates": [
          126.5899701,
          40.97670622
        ]
      },
      "properties": {
        "name": "자강도인민보안국"
      }
    },
    {
      "type": "Feature",
      "geometry": {
        "type": "Point",
        "coordinates": [
          128.1564489,
          41.38499681
        ]
      },
      "properties": {
        "name": "량강도 보위성"
      }
    },
    {
      "type": "Feature",
      "geometry": {
        "type": "Point",
        "coordinates": [
          126.6697441,
          37.95625111
        ]
      },
      "properties": {
        "name": "북한군 지뢰 매설지역"
      }
    },
    {
      "type": "Feature",
      "geometry": {
        "type": "Point",
        "coordinates": [
          125.7195377,
          39.02067159
        ]
      },
      "properties": {
        "name": "통일교회제주국제평화센터"
      }
    },
    {
      "type": "Feature",
      "geometry": {
        "type": "Point",
        "coordinates": [
          125.6688707,
          39.00284113
        ]
      },
      "properties": {
        "name": "김일성군사종합대학"
      }
    },
    {
      "type": "Feature",
      "geometry": {
        "type": "Point",
        "coordinates": [
          125.6643763,
          38.99780146
        ]
      },
      "properties": {
        "name": "만경대혁명학원"
      }
    },
    {
      "type": "Feature",
      "geometry": {
        "type": "Point",
        "coordinates": [
          129.7207131,
          41.75104153
        ]
      },
      "properties": {
        "name": "대공포 포대 (AAA)"
      }
    },
    {
      "type": "Feature",
      "geometry": {
        "type": "Point",
        "coordinates": [
          125.6452686,
          39.01770027
        ]
      },
      "properties": {
        "name": "중앙검찰소"
      }
    },
    {
      "type": "Feature",
      "geometry": {
        "type": "Point",
        "coordinates": [
          125.7485175,
          39.01325708
        ]
      },
      "properties": {
        "name": "로동신문사"
      }
    },
    {
      "type": "Feature",
      "geometry": {
        "type": "Point",
        "coordinates": [
          128.4471018,
          41.84011569
        ]
      },
      "properties": {
        "name": "조선인민군 1045 부대 스키훈련기지"
      }
    },
    {
      "type": "Feature",
      "geometry": {
        "type": "Point",
        "coordinates": [
          124.9783802,
          38.59347884
        ]
      },
      "properties": {
        "name": "조선인민군 제189군부대"
      }
    },
    {
      "type": "Feature",
      "geometry": {
        "type": "Point",
        "coordinates": [
          125.7576367,
          39.22860427
        ]
      },
      "properties": {
        "name": "강건종합군관학교 사격장"
      }
    },
    {
      "type": "Feature",
      "geometry": {
        "type": "Point",
        "coordinates": [
          125.6901343,
          39.19800602
        ]
      },
      "properties": {
        "name": "강건명칭종합군관학교"
      }
    },
    {
      "type": "Feature",
      "geometry": {
        "type": "Point",
        "coordinates": [
          129.81567,
          42.75915
        ]
      },
      "properties": {
        "name": "금산봉중학교"
      }
    },
    {
      "type": "Feature",
      "geometry": {
        "type": "Point",
        "coordinates": [
          129.83424,
          42.81779
        ]
      },
      "properties": {
        "name": "강안중학교"
      }
    },
    {
      "type": "Feature",
      "geometry": {
        "type": "Point",
        "coordinates": [
          129.79198,
          42.76067
        ]
      },
      "properties": {
        "name": "종성중학교"
      }
    },
    {
      "type": "Feature",
      "geometry": {
        "type": "Point",
        "coordinates": [
          129.99321,
          42.95324
        ]
      },
      "properties": {
        "name": "역전공원"
      }
    },
    {
      "type": "Feature",
      "geometry": {
        "type": "Point",
        "coordinates": [
          129.99418,
          42.95586
        ]
      },
      "properties": {
        "name": "온성군소년회관"
      }
    },
    {
      "type": "Feature",
      "geometry": {
        "type": "Point",
        "coordinates": [
          129.94614,
          42.97519
        ]
      },
      "properties": {
        "name": "향당소학교"
      }
    },
    {
      "type": "Feature",
      "geometry": {
        "type": "Point",
        "coordinates": [
          129.83939,
          42.86313
        ]
      },
      "properties": {
        "name": "영강중학교"
      }
    },
    {
      "type": "Feature",
      "geometry": {
        "type": "Point",
        "coordinates": [
          129.93133,
          42.78917
        ]
      },
      "properties": {
        "name": "창평중학교"
      }
    },
    {
      "type": "Feature",
      "geometry": {
        "type": "Point",
        "coordinates": [
          129.97591,
          42.95128
        ]
      },
      "properties": {
        "name": "온탄군탄광기능공학교"
      }
    },
    {
      "type": "Feature",
      "geometry": {
        "type": "Point",
        "coordinates": [
          129.99012,
          42.95862
        ]
      },
      "properties": {
        "name": "온성소학교"
      }
    },
    {
      "type": "Feature",
      "geometry": {
        "type": "Point",
        "coordinates": [
          129.93605,
          42.89586
        ]
      },
      "properties": {
        "name": "용남저수지"
      }
    },
    {
      "type": "Feature",
      "geometry": {
        "type": "Point",
        "coordinates": [
          129.79139,
          42.75744
        ]
      },
      "properties": {
        "name": "종성간호원학교"
      }
    },
    {
      "type": "Feature",
      "geometry": {
        "type": "Point",
        "coordinates": [
          129.97478,
          42.94313
        ]
      },
      "properties": {
        "name": "온탄중학교"
      }
    },
    {
      "type": "Feature",
      "geometry": {
        "type": "Point",
        "coordinates": [
          129.97659,
          42.9528
        ]
      },
      "properties": {
        "name": "온성군당학교"
      }
    },
    {
      "type": "Feature",
      "geometry": {
        "type": "Point",
        "coordinates": [
          129.97685,
          42.90294
        ]
      },
      "properties": {
        "name": "상화중학교"
      }
    },
    {
      "type": "Feature",
      "geometry": {
        "type": "Point",
        "coordinates": [
          129.99454,
          42.95305
        ]
      },
      "properties": {
        "name": "온성군아동공원"
      }
    },
    {
      "type": "Feature",
      "geometry": {
        "type": "Point",
        "coordinates": [
          129.99609,
          42.95445
        ]
      },
      "properties": {
        "name": "온성군고급중학교"
      }
    },
    {
      "type": "Feature",
      "geometry": {
        "type": "Point",
        "coordinates": [
          129.79679,
          42.76563
        ]
      },
      "properties": {
        "name": "종성소학교"
      }
    },
    {
      "type": "Feature",
      "geometry": {
        "type": "Point",
        "coordinates": [
          129.84667,
          42.7924
        ]
      },
      "properties": {
        "name": "산성중학교"
      }
    },
    {
      "type": "Feature",
      "geometry": {
        "type": "Point",
        "coordinates": [
          129.84075,
          42.80625
        ]
      },
      "properties": {
        "name": "산성중학교"
      }
    },
    {
      "type": "Feature",
      "geometry": {
        "type": "Point",
        "coordinates": [
          129.94112,
          42.83582
        ]
      },
      "properties": {
        "name": "창평고개"
      }
    },
    {
      "type": "Feature",
      "geometry": {
        "type": "Point",
        "coordinates": [
          129.98256,
          42.90783
        ]
      },
      "properties": {
        "name": "상화소학교"
      }
    },
    {
      "type": "Feature",
      "geometry": {
        "type": "Point",
        "coordinates": [
          129.97452,
          42.94407
        ]
      },
      "properties": {
        "name": "온탄소학교"
      }
    },
    {
      "type": "Feature",
      "geometry": {
        "type": "Point",
        "coordinates": [
          129.98854,
          42.95408
        ]
      },
      "properties": {
        "name": "온성기계전문학교"
      }
    },
    {
      "type": "Feature",
      "geometry": {
        "type": "Point",
        "coordinates": [
          130.14864,
          42.81316
        ]
      },
      "properties": {
        "name": "성내소학교"
      }
    },
    {
      "type": "Feature",
      "geometry": {
        "type": "Point",
        "coordinates": [
          130.00406,
          42.93517
        ]
      },
      "properties": {
        "name": "주원중학교"
      }
    },
    {
      "type": "Feature",
      "geometry": {
        "type": "Point",
        "coordinates": [
          130.11696,
          42.81513
        ]
      },
      "properties": {
        "name": "성내저수지"
      }
    },
    {
      "type": "Feature",
      "geometry": {
        "type": "Point",
        "coordinates": [
          130.04603,
          42.95453
        ]
      },
      "properties": {
        "name": "왕재산고등중학교"
      }
    },
    {
      "type": "Feature",
      "geometry": {
        "type": "Point",
        "coordinates": [
          130.03992,
          42.93776
        ]
      },
      "properties": {
        "name": "풍인소학교"
      }
    },
    {
      "type": "Feature",
      "geometry": {
        "type": "Point",
        "coordinates": [
          130.23525,
          42.79254
        ]
      },
      "properties": {
        "name": "유다중학교"
      }
    },
    {
      "type": "Feature",
      "geometry": {
        "type": "Point",
        "coordinates": [
          130.20901,
          42.80712
        ]
      },
      "properties": {
        "name": "경원철교"
      }
    },
    {
      "type": "Feature",
      "geometry": {
        "type": "Point",
        "coordinates": [
          130.18743,
          42.84409
        ]
      },
      "properties": {
        "name": "중영중학교"
      }
    },
    {
      "type": "Feature",
      "geometry": {
        "type": "Point",
        "coordinates": [
          130.03668,
          42.78774
        ]
      },
      "properties": {
        "name": "삼박구미령"
      }
    },
    {
      "type": "Feature",
      "geometry": {
        "type": "Point",
        "coordinates": [
          130.03968,
          42.9329
        ]
      },
      "properties": {
        "name": "풍인탄광청사"
      }
    },
    {
      "type": "Feature",
      "geometry": {
        "type": "Point",
        "coordinates": [
          130.00468,
          42.93601
        ]
      },
      "properties": {
        "name": "주원소학교"
      }
    },
    {
      "type": "Feature",
      "geometry": {
        "type": "Point",
        "coordinates": [
          130.03566,
          42.93449
        ]
      },
      "properties": {
        "name": "풍인고급중학교"
      }
    },
    {
      "type": "Feature",
      "geometry": {
        "type": "Point",
        "coordinates": [
          130.04818,
          42.93238
        ]
      },
      "properties": {
        "name": "풍인진명중학교"
      }
    },
    {
      "type": "Feature",
      "geometry": {
        "type": "Point",
        "coordinates": [
          130.19649,
          42.80905
        ]
      },
      "properties": {
        "name": "경원중학교"
      }
    },
    {
      "type": "Feature",
      "geometry": {
        "type": "Point",
        "coordinates": [
          130.19415,
          42.81021
        ]
      },
      "properties": {
        "name": "경원군교원양성소"
      }
    },
    {
      "type": "Feature",
      "geometry": {
        "type": "Point",
        "coordinates": [
          130.19565,
          42.81284
        ]
      },
      "properties": {
        "name": "경원군농업전문학교"
      }
    },
    {
      "type": "Feature",
      "geometry": {
        "type": "Point",
        "coordinates": [
          130.20108,
          42.81672
        ]
      },
      "properties": {
        "name": "경원군군당학교"
      }
    },
    {
      "type": "Feature",
      "geometry": {
        "type": "Point",
        "coordinates": [
          130.11207,
          42.96919
        ]
      },
      "properties": {
        "name": "두루봉중학교"
      }
    },
    {
      "type": "Feature",
      "geometry": {
        "type": "Point",
        "coordinates": [
          130.20618,
          42.81186
        ]
      },
      "properties": {
        "name": "경원군공원"
      }
    },
    {
      "type": "Feature",
      "geometry": {
        "type": "Point",
        "coordinates": [
          130.1993,
          42.8142
        ]
      },
      "properties": {
        "name": "경원1중학교"
      }
    },
    {
      "type": "Feature",
      "geometry": {
        "type": "Point",
        "coordinates": [
          130.19911,
          42.8126
        ]
      },
      "properties": {
        "name": "경원소학교"
      }
    },
    {
      "type": "Feature",
      "geometry": {
        "type": "Point",
        "coordinates": [
          130.39698,
          42.5254
        ]
      },
      "properties": {
        "name": "학송소학교"
      }
    },
    {
      "type": "Feature",
      "geometry": {
        "type": "Point",
        "coordinates": [
          130.33205,
          42.52285
        ]
      },
      "properties": {
        "name": "상농경소학교"
      }
    },
    {
      "type": "Feature",
      "geometry": {
        "type": "Point",
        "coordinates": [
          130.39616,
          42.52324
        ]
      },
      "properties": {
        "name": "학송고등중학교"
      }
    },
    {
      "type": "Feature",
      "geometry": {
        "type": "Point",
        "coordinates": [
          130.32679,
          42.51404
        ]
      },
      "properties": {
        "name": "광명중학교"
      }
    },
    {
      "type": "Feature",
      "geometry": {
        "type": "Point",
        "coordinates": [
          130.33939,
          42.52068
        ]
      },
      "properties": {
        "name": "경흥군공설운동장"
      }
    },
    {
      "type": "Feature",
      "geometry": {
        "type": "Point",
        "coordinates": [
          130.28247,
          42.66318
        ]
      },
      "properties": {
        "name": "신아산철교"
      }
    },
    {
      "type": "Feature",
      "geometry": {
        "type": "Point",
        "coordinates": [
          130.33286,
          42.51785
        ]
      },
      "properties": {
        "name": "경흥고급중학교"
      }
    },
    {
      "type": "Feature",
      "geometry": {
        "type": "Point",
        "coordinates": [
          130.33123,
          42.52648
        ]
      },
      "properties": {
        "name": "상농경고급중학교"
      }
    },
    {
      "type": "Feature",
      "geometry": {
        "type": "Point",
        "coordinates": [
          130.33604,
          42.58237
        ]
      },
      "properties": {
        "name": "명룡고급중학교"
      }
    },
    {
      "type": "Feature",
      "geometry": {
        "type": "Point",
        "coordinates": [
          130.37838,
          42.52485
        ]
      },
      "properties": {
        "name": "룡현중학교"
      }
    },
    {
      "type": "Feature",
      "geometry": {
        "type": "Point",
        "coordinates": [
          130.3376,
          42.52362
        ]
      },
      "properties": {
        "name": "경흥군당학교"
      }
    },
    {
      "type": "Feature",
      "geometry": {
        "type": "Point",
        "coordinates": [
          130.49431,
          42.50377
        ]
      },
      "properties": {
        "name": "하회고등중학교"
      }
    },
    {
      "type": "Feature",
      "geometry": {
        "type": "Point",
        "coordinates": [
          130.31012,
          42.51531
        ]
      },
      "properties": {
        "name": "한영철소학교"
      }
    },
    {
      "type": "Feature",
      "geometry": {
        "type": "Point",
        "coordinates": [
          130.36254,
          42.61342
        ]
      },
      "properties": {
        "name": "신아산고등중학교"
      }
    },
    {
      "type": "Feature",
      "geometry": {
        "type": "Point",
        "coordinates": [
          130.40463,
          42.54266
        ]
      },
      "properties": {
        "name": "송학소학교"
      }
    },
    {
      "type": "Feature",
      "geometry": {
        "type": "Point",
        "coordinates": [
          130.33354,
          42.52325
        ]
      },
      "properties": {
        "name": "경흥공업대학"
      }
    },
    {
      "type": "Feature",
      "geometry": {
        "type": "Point",
        "coordinates": [
          130.2514,
          42.504
        ]
      },
      "properties": {
        "name": "양덕소학교"
      }
    },
    {
      "type": "Feature",
      "geometry": {
        "type": "Point",
        "coordinates": [
          130.40559,
          42.57128
        ]
      },
      "properties": {
        "name": "송학소학교분교"
      }
    },
    {
      "type": "Feature",
      "geometry": {
        "type": "Point",
        "coordinates": [
          130.36856,
          42.55012
        ]
      },
      "properties": {
        "name": "송학소학교분교"
      }
    },
    {
      "type": "Feature",
      "geometry": {
        "type": "Point",
        "coordinates": [
          130.33531,
          42.52717
        ]
      },
      "properties": {
        "name": "상농경보육원교원양성"
      }
    },
    {
      "type": "Feature",
      "geometry": {
        "type": "Point",
        "coordinates": [
          130.30521,
          42.5186
        ]
      },
      "properties": {
        "name": "오봉고등중학교"
      }
    },
    {
      "type": "Feature",
      "geometry": {
        "type": "Point",
        "coordinates": [
          130.35314,
          42.52025
        ]
      },
      "properties": {
        "name": "6.13탄광탁아소"
      }
    },
    {
      "type": "Feature",
      "geometry": {
        "type": "Point",
        "coordinates": [
          130.34143,
          42.51314
        ]
      },
      "properties": {
        "name": "회암고급중학교"
      }
    },
    {
      "type": "Feature",
      "geometry": {
        "type": "Point",
        "coordinates": [
          130.34341,
          42.52144
        ]
      },
      "properties": {
        "name": "7월7일화학공장기능공학교"
      }
    },
    {
      "type": "Feature",
      "geometry": {
        "type": "Point",
        "coordinates": [
          130.32009,
          42.62914
        ]
      },
      "properties": {
        "name": "동주골고개"
      }
    },
    {
      "type": "Feature",
      "geometry": {
        "type": "Point",
        "coordinates": [
          130.33951,
          42.53023
        ]
      },
      "properties": {
        "name": "경원군교원재교육강습소"
      }
    },
    {
      "type": "Feature",
      "geometry": {
        "type": "Point",
        "coordinates": [
          130.33489,
          42.5204
        ]
      },
      "properties": {
        "name": "은별고등중학교"
      }
    },
    {
      "type": "Feature",
      "geometry": {
        "type": "Point",
        "coordinates": [
          130.41306,
          42.55306
        ]
      },
      "properties": {
        "name": "송학저수지"
      }
    },
    {
      "type": "Feature",
      "geometry": {
        "type": "Point",
        "coordinates": [
          130.25268,
          42.50558
        ]
      },
      "properties": {
        "name": "양덕리"
      }
    },
    {
      "type": "Feature",
      "geometry": {
        "type": "Point",
        "coordinates": [
          130.3769,
          42.52406
        ]
      },
      "properties": {
        "name": "룡현소학교"
      }
    },
    {
      "type": "Feature",
      "geometry": {
        "type": "Point",
        "coordinates": [
          130.33997,
          42.52798
        ]
      },
      "properties": {
        "name": "하농경고급중학교"
      }
    },
    {
      "type": "Feature",
      "geometry": {
        "type": "Point",
        "coordinates": [
          130.33378,
          42.51971
        ]
      },
      "properties": {
        "name": "경흥군회암초급중학교"
      }
    },
    {
      "type": "Feature",
      "geometry": {
        "type": "Point",
        "coordinates": [
          130.34025,
          42.51305
        ]
      },
      "properties": {
        "name": "회암소학교"
      }
    },
    {
      "type": "Feature",
      "geometry": {
        "type": "Point",
        "coordinates": [
          130.3379,
          42.51736
        ]
      },
      "properties": {
        "name": "경흥군탁아소"
      }
    },
    {
      "type": "Feature",
      "geometry": {
        "type": "Point",
        "coordinates": [
          130.36851,
          42.55251
        ]
      },
      "properties": {
        "name": "송학기차굴"
      }
    },
    {
      "type": "Feature",
      "geometry": {
        "type": "Point",
        "coordinates": [
          130.19433,
          42.6627
        ]
      },
      "properties": {
        "name": "고건원장동고등중학교"
      }
    },
    {
      "type": "Feature",
      "geometry": {
        "type": "Point",
        "coordinates": [
          130.19209,
          42.66602
        ]
      },
      "properties": {
        "name": "고건원남자고등중학교"
      }
    },
    {
      "type": "Feature",
      "geometry": {
        "type": "Point",
        "coordinates": [
          130.19349,
          42.66562
        ]
      },
      "properties": {
        "name": "고건원인민학교"
      }
    },
    {
      "type": "Feature",
      "geometry": {
        "type": "Point",
        "coordinates": [
          130.30521,
          42.24292
        ]
      },
      "properties": {
        "name": "나선시공설운동장"
      }
    },
    {
      "type": "Feature",
      "geometry": {
        "type": "Point",
        "coordinates": [
          130.32835,
          42.20303
        ]
      },
      "properties": {
        "name": "하상구미"
      }
    },
    {
      "type": "Feature",
      "geometry": {
        "type": "Point",
        "coordinates": [
          130.29414,
          42.24834
        ]
      },
      "properties": {
        "name": "나심동"
      }
    },
    {
      "type": "Feature",
      "geometry": {
        "type": "Point",
        "coordinates": [
          130.3112,
          42.23916
        ]
      },
      "properties": {
        "name": "안주고급중학교"
      }
    },
    {
      "type": "Feature",
      "geometry": {
        "type": "Point",
        "coordinates": [
          130.30399,
          42.24131
        ]
      },
      "properties": {
        "name": "나선시해안공원"
      }
    },
    {
      "type": "Feature",
      "geometry": {
        "type": "Point",
        "coordinates": [
          130.28569,
          42.24045
        ]
      },
      "properties": {
        "name": "나진해운대학"
      }
    },
    {
      "type": "Feature",
      "geometry": {
        "type": "Point",
        "coordinates": [
          130.55515,
          42.35115
        ]
      },
      "properties": {
        "name": "망시취산"
      }
    },
    {
      "type": "Feature",
      "geometry": {
        "type": "Point",
        "coordinates": [
          130.6677,
          42.37168
        ]
      },
      "properties": {
        "name": "승전대웃섬"
      }
    },
    {
      "type": "Feature",
      "geometry": {
        "type": "Point",
        "coordinates": [
          130.52843,
          42.49561
        ]
      },
      "properties": {
        "name": "신회동"
      }
    },
    {
      "type": "Feature",
      "geometry": {
        "type": "Point",
        "coordinates": [
          130.51241,
          42.46099
        ]
      },
      "properties": {
        "name": "사회동"
      }
    },
    {
      "type": "Feature",
      "geometry": {
        "type": "Point",
        "coordinates": [
          130.54004,
          42.42111
        ]
      },
      "properties": {
        "name": "홍의리중학교"
      }
    },
    {
      "type": "Feature",
      "geometry": {
        "type": "Point",
        "coordinates": [
          130.53808,
          42.42364
        ]
      },
      "properties": {
        "name": "홍의동"
      }
    },
    {
      "type": "Feature",
      "geometry": {
        "type": "Point",
        "coordinates": [
          130.62545,
          42.40095
        ]
      },
      "properties": {
        "name": "조산고등중학교"
      }
    },
    {
      "type": "Feature",
      "geometry": {
        "type": "Point",
        "coordinates": [
          130.63059,
          42.36543
        ]
      },
      "properties": {
        "name": "승전대인민학교"
      }
    },
    {
      "type": "Feature",
      "geometry": {
        "type": "Point",
        "coordinates": [
          130.61165,
          42.41819
        ]
      },
      "properties": {
        "name": "두만강중학교"
      }
    },
    {
      "type": "Feature",
      "geometry": {
        "type": "Point",
        "coordinates": [
          130.60412,
          42.42226
        ]
      },